[
    {
        "id": 1,
        "name": "Texas Children's Urgent Care The Woodlands Campus",
        "address": "17600 Interstate 45 South  Suite 285",
        "city": "The Woodlands",
        "state": "Texas",
        "zip": "77384",
        "type": null,
        "latitude": 30.200593,
        "longitude": -95.45764,
        "created_at": "2020-12-18T18:59:26.403Z",
        "updated_at": "2020-12-18T18:59:26.403Z",
        "campus": "Urgent Care",
        "photo": "https://www.texaschildrens.org/sites/default/files/UC%20Logo_0_0_0_0_0.jpg",
        "phone": "936-267-6100"
    },
    {
        "id": 2,
        "name": "Texas Children's Specialty Care Austin",
        "address": "8611 N. Mopac Expressway",
        "city": "Austin",
        "state": "Texas",
        "zip": "78759",
        "type": null,
        "latitude": 30.37346,
        "longitude": -97.73974,
        "created_at": "2020-12-18T18:59:26.403Z",
        "updated_at": "2020-12-18T18:59:26.403Z",
        "campus": "Specialty Care",
        "photo": "https://www.texaschildrens.org/sites/default/files/Mopac_WestElevation.jpg",
        "phone": "737-220-8200"
    },
    {
        "id": 3,
        "name": "Texas Children's Urgent Care West Campus",
        "address": "18200 Katy Fwy, Suite WD-200",
        "city": "Houston",
        "state": "Texas",
        "zip": "77094",
        "type": null,
        "latitude": 29.787291,
        "longitude": -95.691613,
        "created_at": "2020-12-18T18:59:26.403Z",
        "updated_at": "2020-12-18T18:59:26.403Z",
        "campus": "Urgent Care",
        "photo": "https://www.texaschildrens.org/sites/default/files/UC%20Logo_0_0_0_0.jpg",
        "phone": "832-227-2880"
    },
    {
        "id": 4,
        "name": "Texas Children's Urgent Care Kingwood",
        "address": "20031 West Lake Houston Pkwy  Suite 200",
        "city": "Kingwood",
        "state": "Texas",
        "zip": "77346",
        "type": null,
        "latitude": 30.007586,
        "longitude": -95.171435,
        "created_at": "2020-12-18T18:59:26.403Z",
        "updated_at": "2020-12-18T18:59:26.403Z",
        "campus": "Urgent Care",
        "photo": "https://www.texaschildrens.org/sites/default/files/UC%20Logo_1_0.jpg",
        "phone": "281-812-1704"
    },
    {
        "id": 5,
        "name": "Legacy Tower",
        "address": "6651 Main Street",
        "city": "Houston",
        "state": "Texas",
        "zip": "77030",
        "type": null,
        "latitude": 0,
        "longitude": 0,
        "created_at": "2020-12-18T18:59:26.403Z",
        "updated_at": "2020-12-18T18:59:26.403Z",
        "campus": "Texas Medical Center",
        "photo": "https://www.texaschildrens.org/sites/default/files/legacy_tower_square.jpg",
        "phone": "832-824-1000"
    },
    {
        "id": 6,
        "name": "Texas Children's Urgent Care Westgate",
        "address": "4477 South Lamar Blvd.  Suite 400",
        "city": "Austin",
        "state": "Texas",
        "zip": "78745",
        "type": null,
        "latitude": 30.230323,
        "longitude": -97.798894,
        "created_at": "2020-12-18T18:59:26.403Z",
        "updated_at": "2020-12-18T18:59:26.403Z",
        "campus": "Urgent Care",
        "photo": "https://www.texaschildrens.org/sites/default/files/UC_google_listing_logo.jpg",
        "phone": "512-892-9231"
    },
    {
        "id": 7,
        "name": "Texas Children's Urgent Care East",
        "address": "12620 Woodforest Blvd.  Suite 160",
        "city": "Houston",
        "state": "Texas",
        "zip": "77015",
        "type": null,
        "latitude": 29.789611,
        "longitude": -95.200873,
        "created_at": "2020-12-18T18:59:26.403Z",
        "updated_at": "2020-12-18T18:59:26.403Z",
        "campus": "Urgent Care",
        "photo": "https://www.texaschildrens.org/sites/default/files/UC%20Logo_1.jpg",
        "phone": "713-637-8228"
    },
    {
        "id": 8,
        "name": "Texas Children's Urgent Care The Heights",
        "address": "2200 Yale Street  Suite 110",
        "city": "Houston",
        "state": "Texas",
        "zip": "77008",
        "type": null,
        "latitude": 29.80623,
        "longitude": -95.398964,
        "created_at": "2020-12-18T18:59:26.403Z",
        "updated_at": "2020-12-18T18:59:26.403Z",
        "campus": "Urgent Care",
        "photo": "https://www.texaschildrens.org/sites/default/files/UC%20Logo_0_0_0.jpg",
        "phone": "713-861-6104"
    },
    {
        "id": 9,
        "name": "Texas Children's Specialty Care Eagle Springs",
        "address": "5514 Atascocita Rd.  Suite 190",
        "city": "Humble",
        "state": "Texas",
        "zip": "77346",
        "type": null,
        "latitude": 29.988999,
        "longitude": -95.188774,
        "created_at": "2020-12-18T18:59:26.403Z",
        "updated_at": "2020-12-18T18:59:26.403Z",
        "campus": "Specialty Care",
        "photo": "https://www.texaschildrens.org/sites/default/files/logo_locations_placeholder_2_0.jpg",
        "phone": "281-666-5006"
    },
    {
        "id": 10,
        "name": "Texas Children's Specialty Care Eagle Springs",
        "address": "5514 Atascocita Rd.  Suite 190",
        "city": "Humble",
        "state": "Texas",
        "zip": "77346",
        "type": null,
        "latitude": 29.988999,
        "longitude": -95.188774,
        "created_at": "2020-12-18T18:59:26.403Z",
        "updated_at": "2020-12-18T18:59:26.403Z",
        "campus": "Specialty Care",
        "photo": "https://www.texaschildrens.org/sites/default/files/Eagle_Springs.jpeg",
        "phone": "281-666-5006"
    },
    {
        "id": 11,
        "name": "Texas Children's Specialty Care Eagle Springs",
        "address": "5514 Atascocita Rd.  Suite 190",
        "city": "Humble",
        "state": "Texas",
        "zip": "77346",
        "type": null,
        "latitude": 29.988999,
        "longitude": -95.188774,
        "created_at": "2020-12-18T18:59:26.403Z",
        "updated_at": "2020-12-18T18:59:26.403Z",
        "campus": "Specialty Care",
        "photo": "https://www.texaschildrens.org/sites/default/files/eagle-springs.jpg",
        "phone": "281-666-5006"
    },
    {
        "id": 12,
        "name": "Texas Children's Specialty Care Bellaire",
        "address": "6330 West Loop South, Suite 300",
        "city": "Bellaire",
        "state": "Texas",
        "zip": "77401",
        "type": null,
        "latitude": 0,
        "longitude": 0,
        "created_at": "2020-12-18T18:59:26.403Z",
        "updated_at": "2020-12-18T18:59:26.403Z",
        "campus": "Specialty Care",
        "photo": "https://www.texaschildrens.org/sites/default/files/logo_locations_placeholder.jpg",
        "phone": "713-839-0164"
    },
    {
        "id": 13,
        "name": "Texas Children's Specialty Care Bellaire",
        "address": "6330 West Loop South, Suite 300",
        "city": "Bellaire",
        "state": "Texas",
        "zip": "77401",
        "type": null,
        "latitude": 0,
        "longitude": 0,
        "created_at": "2020-12-18T18:59:26.403Z",
        "updated_at": "2020-12-18T18:59:26.403Z",
        "campus": "Specialty Care",
        "photo": "https://www.texaschildrens.org/sites/default/files/logo_locations_placeholder_1.jpg",
        "phone": "713-839-0164"
    },
    {
        "id": 14,
        "name": "Texas Children's Specialty Care Bellaire",
        "address": "6330 West Loop South, Suite 300",
        "city": "Bellaire",
        "state": "Texas",
        "zip": "77401",
        "type": null,
        "latitude": 0,
        "longitude": 0,
        "created_at": "2020-12-18T18:59:26.403Z",
        "updated_at": "2020-12-18T18:59:26.403Z",
        "campus": "Specialty Care",
        "photo": "https://www.texaschildrens.org/sites/default/files/logo_locations_placeholder_2.jpg",
        "phone": "713-839-0164"
    },
    {
        "id": 15,
        "name": "Texas Children's Specialty Care Bellaire",
        "address": "6330 West Loop South, Suite 300",
        "city": "Bellaire",
        "state": "Texas",
        "zip": "77401",
        "type": null,
        "latitude": 0,
        "longitude": 0,
        "created_at": "2020-12-18T18:59:26.403Z",
        "updated_at": "2020-12-18T18:59:26.403Z",
        "campus": "Specialty Care",
        "photo": "https://www.texaschildrens.org/sites/default/files/Bellaire_Specialty_Clinic_042017.png",
        "phone": "713-839-0164"
    },
    {
        "id": 16,
        "name": "Texas Children's Specialty Care Bellaire",
        "address": "6330 West Loop South, Suite 300",
        "city": "Bellaire",
        "state": "Texas",
        "zip": "77401",
        "type": null,
        "latitude": 0,
        "longitude": 0,
        "created_at": "2020-12-18T18:59:26.403Z",
        "updated_at": "2020-12-18T18:59:26.403Z",
        "campus": "Specialty Care",
        "photo": "https://www.texaschildrens.org/sites/default/files/bellaire.jpg",
        "phone": "713-839-0164"
    },
    {
        "id": 17,
        "name": "Texas Children's Urgent Care Fairfield",
        "address": "28070 Highway 290, Suite 100",
        "city": "Cypress",
        "state": "Texas",
        "zip": "77433",
        "type": null,
        "latitude": 29.990484,
        "longitude": -95.736547,
        "created_at": "2020-12-18T18:59:26.403Z",
        "updated_at": "2020-12-18T18:59:26.403Z",
        "campus": "Urgent Care",
        "photo": "https://www.texaschildrens.org/sites/default/files/UC%20Logo_0_0.jpg",
        "phone": "281-758-4770"
    },
    {
        "id": 18,
        "name": "Medical Arts Center I (MAC I)",
        "address": "17198 St. Luke\u2019s Way  Suite 300",
        "city": "The Woodlands",
        "state": "Texas",
        "zip": "77384",
        "type": null,
        "latitude": 30.205751,
        "longitude": -95.458702,
        "created_at": "2020-12-18T18:59:26.403Z",
        "updated_at": "2020-12-18T18:59:26.403Z",
        "campus": "The Woodlands",
        "photo": "https://www.texaschildrens.org/sites/default/files/healthcenter-woodlands.jpg",
        "phone": "936-321-0808"
    },
    {
        "id": 19,
        "name": "Texas Children's Hospital The Woodlands (Outpatient Services)",
        "address": "17580 Interstate 45 South",
        "city": "The Woodlands",
        "state": "Texas",
        "zip": "77384",
        "type": null,
        "latitude": 30.201149,
        "longitude": -95.457601,
        "created_at": "2020-12-18T18:59:26.403Z",
        "updated_at": "2020-12-18T18:59:26.403Z",
        "campus": "The Woodlands",
        "photo": "https://www.texaschildrens.org/sites/default/files/woodlands_rendering_1.jpg",
        "phone": "936-267-5000"
    },
    {
        "id": 20,
        "name": "Texas Children's Hospital The Woodlands (Outpatient Services)",
        "address": "17580 Interstate 45 South",
        "city": "The Woodlands",
        "state": "Texas",
        "zip": "77384",
        "type": null,
        "latitude": 30.201149,
        "longitude": -95.457601,
        "created_at": "2020-12-18T18:59:26.403Z",
        "updated_at": "2020-12-18T18:59:26.403Z",
        "campus": "The Woodlands",
        "photo": "https://www.texaschildrens.org/sites/default/files/woodlands_outpatient.png",
        "phone": "936-267-5000"
    },
    {
        "id": 21,
        "name": "Texas Children's Urgent Care The Vintage",
        "address": "10420 Louetta Rd., Suite 104",
        "city": "Houston",
        "state": "Texas",
        "zip": "77070",
        "type": null,
        "latitude": 29.997786,
        "longitude": -95.566772,
        "created_at": "2020-12-18T18:59:26.403Z",
        "updated_at": "2020-12-18T18:59:26.403Z",
        "campus": "Urgent Care",
        "photo": "https://www.texaschildrens.org/sites/default/files/UC%20Logo_0.jpg",
        "phone": "281-251-0269"
    },
    {
        "id": 22,
        "name": "Texas Children's Urgent Care Main Campus",
        "address": "6621 Fannin, Suite 2240",
        "city": "Houston",
        "state": "Texas",
        "zip": "77030",
        "type": null,
        "latitude": 29.707864,
        "longitude": -95.401577,
        "created_at": "2020-12-18T18:59:26.403Z",
        "updated_at": "2020-12-18T18:59:26.403Z",
        "campus": "Urgent Care",
        "photo": "https://www.texaschildrens.org/sites/default/files/TCUC_Logo_1.jpg",
        "phone": "832-824-2000"
    },
    {
        "id": 23,
        "name": "Texas Children's Urgent Care Main Campus",
        "address": "6621 Fannin, Suite 2240",
        "city": "Houston",
        "state": "Texas",
        "zip": "77030",
        "type": null,
        "latitude": 29.707864,
        "longitude": -95.401577,
        "created_at": "2020-12-18T18:59:26.403Z",
        "updated_at": "2020-12-18T18:59:26.403Z",
        "campus": "Urgent Care",
        "photo": "https://www.texaschildrens.org/sites/default/files/UC%20Logo.jpg",
        "phone": "832-824-2000"
    },
    {
        "id": 24,
        "name": "Texas Children's Urgent Care Pearland",
        "address": "2701 Pearland Parkway, Suite 190",
        "city": "Pearland",
        "state": "Texas",
        "zip": "77581",
        "type": null,
        "latitude": 29.557891,
        "longitude": -95.260231,
        "created_at": "2020-12-18T18:59:26.403Z",
        "updated_at": "2020-12-18T18:59:26.403Z",
        "campus": "Urgent Care",
        "photo": "https://www.texaschildrens.org/sites/default/files/TCUC_Logo.jpg",
        "phone": "281-485-6400"
    },
    {
        "id": 25,
        "name": "Texas Children's Urgent Care Pearland",
        "address": "2701 Pearland Parkway, Suite 190",
        "city": "Pearland",
        "state": "Texas",
        "zip": "77581",
        "type": null,
        "latitude": 29.557891,
        "longitude": -95.260231,
        "created_at": "2020-12-18T18:59:26.403Z",
        "updated_at": "2020-12-18T18:59:26.403Z",
        "campus": "Urgent Care",
        "photo": "https://www.texaschildrens.org/sites/default/files/TCUC_Logo_0.jpg",
        "phone": "281-485-6400"
    },
    {
        "id": 26,
        "name": "Texas Children's Urgent Care Pearland",
        "address": "2701 Pearland Parkway, Suite 190",
        "city": "Pearland",
        "state": "Texas",
        "zip": "77581",
        "type": null,
        "latitude": 29.557891,
        "longitude": -95.260231,
        "created_at": "2020-12-18T18:59:26.403Z",
        "updated_at": "2020-12-18T18:59:26.403Z",
        "campus": "Urgent Care",
        "photo": "https://www.texaschildrens.org/sites/default/files/pearland_urgent_care.JPG",
        "phone": "281-485-6400"
    },
    {
        "id": 27,
        "name": "Texas Children's Hospital The Woodlands (Inpatient &amp; Emergency)",
        "address": "17600 Interstate 45 South",
        "city": "The Woodlands",
        "state": "Texas",
        "zip": "77384",
        "type": null,
        "latitude": 30.201455,
        "longitude": -95.457884,
        "created_at": "2020-12-18T18:59:26.403Z",
        "updated_at": "2020-12-18T18:59:26.403Z",
        "campus": "The Woodlands",
        "photo": "https://www.texaschildrens.org/sites/default/files/Woodlands.jpg",
        "phone": "936-267-5000"
    },
    {
        "id": 28,
        "name": "Texas Children's Hospital The Woodlands (Inpatient &amp; Emergency)",
        "address": "17600 Interstate 45 South",
        "city": "The Woodlands",
        "state": "Texas",
        "zip": "77384",
        "type": null,
        "latitude": 30.201455,
        "longitude": -95.457884,
        "created_at": "2020-12-18T18:59:26.403Z",
        "updated_at": "2020-12-18T18:59:26.403Z",
        "campus": "The Woodlands",
        "photo": "https://www.texaschildrens.org/sites/default/files/woodlands_rendering.jpg",
        "phone": "936-267-5000"
    },
    {
        "id": 29,
        "name": "Texas Children's Urgent Care Memorial",
        "address": "12850 Memorial Drive, Suite 210",
        "city": "Houston",
        "state": "Texas",
        "zip": "77024",
        "type": null,
        "latitude": 29.773183,
        "longitude": -95.561497,
        "created_at": "2020-12-18T18:59:26.403Z",
        "updated_at": "2020-12-18T18:59:26.403Z",
        "campus": "Urgent Care",
        "photo": "https://www.texaschildrens.org/sites/default/files/Memorial_0.jpg",
        "phone": "832-827-4000"
    },
    {
        "id": 30,
        "name": "Texas Children's Urgent Care Panther Creek",
        "address": "4775 W. Panther Creek Drive, Suite C300",
        "city": "The Woodlands",
        "state": "Texas",
        "zip": "77381",
        "type": null,
        "latitude": 30.167952,
        "longitude": -95.503956,
        "created_at": "2020-12-18T18:59:26.403Z",
        "updated_at": "2020-12-18T18:59:26.403Z",
        "campus": "Urgent Care",
        "photo": "https://www.texaschildrens.org/sites/default/files/Urgent%20Care%20Woodlands.jpg",
        "phone": "281-292-4765"
    },
    {
        "id": 31,
        "name": "Texas Children's Urgent Care Cinco Ranch",
        "address": "9727 Spring Green Blvd, Suite 900",
        "city": "Katy",
        "state": "Texas",
        "zip": "77494",
        "type": null,
        "latitude": 29.702513,
        "longitude": -95.815521,
        "created_at": "2020-12-18T18:59:26.403Z",
        "updated_at": "2020-12-18T18:59:26.403Z",
        "campus": "Urgent Care",
        "photo": "https://www.texaschildrens.org/sites/default/files/2k14-0195-0530%20Cinco%20Ranch%20Urgent%20Care%20%20%20Photo%20by%20A%20Kramer.jpg",
        "phone": "281-789-6300"
    },
    {
        "id": 32,
        "name": "Texas Children's Urgent Care Cinco Ranch",
        "address": "9727 Spring Green Blvd, Suite 900",
        "city": "Katy",
        "state": "Texas",
        "zip": "77494",
        "type": null,
        "latitude": 29.702513,
        "longitude": -95.815521,
        "created_at": "2020-12-18T18:59:26.403Z",
        "updated_at": "2020-12-18T18:59:26.403Z",
        "campus": "Urgent Care",
        "photo": "https://www.texaschildrens.org/sites/default/files/CincoRanch.jpg",
        "phone": "281-789-6300"
    },
    {
        "id": 33,
        "name": "Texas Children's Pavilion for Women Pearland",
        "address": "9003 Broadway St.",
        "city": "Pearland",
        "state": "Texas",
        "zip": "77584",
        "type": null,
        "latitude": 29.558884,
        "longitude": -95.359074,
        "created_at": "2020-12-18T18:59:26.403Z",
        "updated_at": "2020-12-18T18:59:26.403Z",
        "campus": "Specialty Care",
        "photo": "https://www.texaschildrens.org/sites/default/files/pearlandobgyn_front.jpg",
        "phone": "281-412-4335"
    },
    {
        "id": 34,
        "name": "Main Baylor",
        "address": "One Baylor Plaza",
        "city": "Houston",
        "state": "Texas",
        "zip": "77030",
        "type": null,
        "latitude": 29.710523,
        "longitude": -95.39624,
        "created_at": "2020-12-18T18:59:26.403Z",
        "updated_at": "2020-12-18T18:59:26.403Z",
        "campus": "Texas Medical Center",
        "photo": "https://www.texaschildrens.org/sites/default/files/landmarks%202.jpg",
        "phone": "713-798-4951"
    },
    {
        "id": 35,
        "name": "Texas Children's Hospital Autism Center",
        "address": "8080 N. Stadium Drive",
        "city": "Houston",
        "state": "Texas",
        "zip": "77054",
        "type": null,
        "latitude": 29.691694,
        "longitude": -95.408323,
        "created_at": "2020-12-18T18:59:26.403Z",
        "updated_at": "2020-12-18T18:59:26.403Z",
        "campus": "Texas Medical Center",
        "photo": "https://www.texaschildrens.org/sites/default/files/2k13-0168-AK1_5400%20TCH%20Autism%20Center%20and%20Meyer%20Center%20for%20Developmental%20Pediatrics.JPG",
        "phone": "Patients: 832-822-1900"
    },
    {
        "id": 36,
        "name": "Texas Children's Specialty Care Upper Kirby",
        "address": "3023 Kirby Dr., Suite 201",
        "city": "Houston",
        "state": "Texas",
        "zip": "77098",
        "type": null,
        "latitude": 29.737758,
        "longitude": -95.418002,
        "created_at": "2020-12-18T18:59:26.403Z",
        "updated_at": "2020-12-18T18:59:26.403Z",
        "campus": "Specialty Care",
        "photo": "https://www.texaschildrens.org/sites/default/files/2K13-0072-DSC_5655%20Texas%20Children%27s%20Pediatrics%20-%20Pediatric%20Medical%20Group%20-%20Kirby.jpg",
        "phone": "713-533-9016"
    },
    {
        "id": 37,
        "name": "Texas Children's Specialty Care Upper Kirby",
        "address": "3023 Kirby Dr., Suite 201",
        "city": "Houston",
        "state": "Texas",
        "zip": "77098",
        "type": null,
        "latitude": 29.737758,
        "longitude": -95.418002,
        "created_at": "2020-12-18T18:59:26.403Z",
        "updated_at": "2020-12-18T18:59:26.403Z",
        "campus": "Specialty Care",
        "photo": "https://www.texaschildrens.org/sites/default/files/2K13-0072-DSC_5655%20Texas%20Children%27s%20Pediatrics%20-%20Pediatric%20Medical%20Group%20-%20Kirby_0.jpg",
        "phone": "713-533-9016"
    },
    {
        "id": 38,
        "name": "Vannie Cook Children's Clinic",
        "address": "101 W. Expressway 83",
        "city": "McAllen",
        "state": "Texas",
        "zip": "78503",
        "type": null,
        "latitude": 26.187194,
        "longitude": -98.223066,
        "created_at": "2020-12-18T18:59:26.403Z",
        "updated_at": "2020-12-18T18:59:26.403Z",
        "campus": "Specialty Care",
        "photo": "https://www.texaschildrens.org/sites/default/files/vccc-outside-building-1.jpg",
        "phone": "956-661-9840"
    },
    {
        "id": 39,
        "name": "Meyer Center for Developmental Pediatrics",
        "address": "8080 North Stadium Drive",
        "city": "Houston",
        "state": "Texas",
        "zip": "77054",
        "type": null,
        "latitude": 29.691694,
        "longitude": -95.408323,
        "created_at": "2020-12-18T18:59:26.403Z",
        "updated_at": "2020-12-18T18:59:26.403Z",
        "campus": "Texas Medical Center",
        "photo": "https://www.texaschildrens.org/sites/default/files/2k13-0168-AK1_5400%20TCH%20Autism%20Center%20and%20Meyer%20Center%20for%20Developmental%20Pediatrics_0.JPG",
        "phone": null
    },
    {
        "id": 40,
        "name": "Texas Children's Specialty Care Kingwood Glen",
        "address": "19298 W. Lake Houston Parkway",
        "city": "Humble",
        "state": "Texas",
        "zip": "77346",
        "type": null,
        "latitude": 30.000172,
        "longitude": -95.162769,
        "created_at": "2020-12-18T18:59:26.403Z",
        "updated_at": "2020-12-18T18:59:26.403Z",
        "campus": "Specialty Care",
        "photo": "https://www.texaschildrens.org/sites/default/files/2k9-0176-1313%20West%20Houston%20Health%20Center.jpg",
        "phone": "281-812-0280 (Specialty Care); 832-828-4900 (Outpatient Therapy); 832-828-4990 (Sports Medicine Therapy)"
    },
    {
        "id": 41,
        "name": "Texas Children's Specialty Care Kingwood Glen",
        "address": "19298 W. Lake Houston Parkway",
        "city": "Humble",
        "state": "Texas",
        "zip": "77346",
        "type": null,
        "latitude": 30.000172,
        "longitude": -95.162769,
        "created_at": "2020-12-18T18:59:26.403Z",
        "updated_at": "2020-12-18T18:59:26.403Z",
        "campus": "Specialty Care",
        "photo": "https://www.texaschildrens.org/sites/default/files/Kingwood_Glen.jpeg",
        "phone": "281-812-0280 (Specialty Care); 832-828-4900 (Outpatient Therapy); 832-828-4990 (Sports Medicine Therapy)"
    },
    {
        "id": 42,
        "name": "Texas Children's Specialty Care Kingwood Glen",
        "address": "19298 W. Lake Houston Parkway",
        "city": "Humble",
        "state": "Texas",
        "zip": "77346",
        "type": null,
        "latitude": 30.000172,
        "longitude": -95.162769,
        "created_at": "2020-12-18T18:59:26.403Z",
        "updated_at": "2020-12-18T18:59:26.403Z",
        "campus": "Specialty Care",
        "photo": "https://www.texaschildrens.org/sites/default/files/kingwood-glen.jpg",
        "phone": "281-812-0280 (Specialty Care); 832-828-4900 (Outpatient Therapy); 832-828-4990 (Sports Medicine Therapy)"
    },
    {
        "id": 43,
        "name": "Texas Children's Specialty Care Sugar Land",
        "address": "15400 Southwest Freeway, Suite 200",
        "city": "Sugar Land",
        "state": "Texas",
        "zip": "77478",
        "type": null,
        "latitude": 29.606181,
        "longitude": -95.616589,
        "created_at": "2020-12-18T18:59:26.403Z",
        "updated_at": "2020-12-18T18:59:26.403Z",
        "campus": "Specialty Care",
        "photo": "https://www.texaschildrens.org/sites/default/files/2k9-0235-3707-Sugar-Land-Health-CenterSM.jpg",
        "phone": "281-494-7010"
    },
    {
        "id": 44,
        "name": "Texas Children's Specialty Care Sugar Land",
        "address": "15400 Southwest Freeway, Suite 200",
        "city": "Sugar Land",
        "state": "Texas",
        "zip": "77478",
        "type": null,
        "latitude": 29.606181,
        "longitude": -95.616589,
        "created_at": "2020-12-18T18:59:26.403Z",
        "updated_at": "2020-12-18T18:59:26.403Z",
        "campus": "Specialty Care",
        "photo": "https://www.texaschildrens.org/sites/default/files/2k9-0235-3707%20Sugar%20Land%20Health%20Center.jpg",
        "phone": "281-494-7010"
    },
    {
        "id": 45,
        "name": "Texas Children's Specialty Care Sugar Land",
        "address": "15400 Southwest Freeway, Suite 200",
        "city": "Sugar Land",
        "state": "Texas",
        "zip": "77478",
        "type": null,
        "latitude": 29.606181,
        "longitude": -95.616589,
        "created_at": "2020-12-18T18:59:26.403Z",
        "updated_at": "2020-12-18T18:59:26.403Z",
        "campus": "Specialty Care",
        "photo": "https://www.texaschildrens.org/sites/default/files/sugar-land.jpg",
        "phone": "281-494-7010"
    },
    {
        "id": 46,
        "name": "Texas Children's Specialty Care Cy-Fair",
        "address": "11777 FM 1960 West",
        "city": "Houston",
        "state": "Texas",
        "zip": "77065",
        "type": null,
        "latitude": 29.926661,
        "longitude": -95.59529,
        "created_at": "2020-12-18T18:59:26.403Z",
        "updated_at": "2020-12-18T18:59:26.403Z",
        "campus": "Specialty Care",
        "photo": "https://www.texaschildrens.org/sites/default/files/2k9-0192-2035%20Cy-Fair%20Health%20Center.jpg",
        "phone": "281-469-4688"
    },
    {
        "id": 47,
        "name": "Texas Children's Specialty Care Cy-Fair",
        "address": "11777 FM 1960 West",
        "city": "Houston",
        "state": "Texas",
        "zip": "77065",
        "type": null,
        "latitude": 29.926661,
        "longitude": -95.59529,
        "created_at": "2020-12-18T18:59:26.403Z",
        "updated_at": "2020-12-18T18:59:26.403Z",
        "campus": "Specialty Care",
        "photo": "https://www.texaschildrens.org/sites/default/files/cy-fair.jpg",
        "phone": "281-469-4688"
    },
    {
        "id": 48,
        "name": "Texas Children's Specialty Care Clear Lake",
        "address": "940 Clear Lake City Blvd., Suite 200",
        "city": "Webster",
        "state": "Texas",
        "zip": "77598",
        "type": null,
        "latitude": 29.578257,
        "longitude": -95.159185,
        "created_at": "2020-12-18T18:59:26.403Z",
        "updated_at": "2020-12-18T18:59:26.403Z",
        "campus": "Specialty Care",
        "photo": "https://www.texaschildrens.org/sites/default/files/2K9-0190-9T6R6798%20Texas%20Children%27s%20Health%20Center%20-%20Clear%20Lake%20City.jpg",
        "phone": "281-282-1900"
    },
    {
        "id": 49,
        "name": "Texas Children's Specialty Care Clear Lake",
        "address": "940 Clear Lake City Blvd., Suite 200",
        "city": "Webster",
        "state": "Texas",
        "zip": "77598",
        "type": null,
        "latitude": 29.578257,
        "longitude": -95.159185,
        "created_at": "2020-12-18T18:59:26.403Z",
        "updated_at": "2020-12-18T18:59:26.403Z",
        "campus": "Specialty Care",
        "photo": "https://www.texaschildrens.org/sites/default/files/clear-lake.jpg",
        "phone": "281-282-1900"
    },
    {
        "id": 50,
        "name": "Meyer Building",
        "address": "1919 S. Braeswood",
        "city": "Houston",
        "state": "Texas",
        "zip": "77030",
        "type": null,
        "latitude": 29.699133,
        "longitude": -95.405118,
        "created_at": "2020-12-18T18:59:26.403Z",
        "updated_at": "2020-12-18T18:59:26.403Z",
        "campus": "Texas Medical Center",
        "photo": "https://www.texaschildrens.org/sites/default/files/1994%20Texas%20Children%27s%20Hospital%20Meyer%20Building.jpg",
        "phone": null
    },
    {
        "id": 51,
        "name": "Neurological Research Institute",
        "address": "1250 Moursund Street",
        "city": "Houston",
        "state": "Texas",
        "zip": "77030",
        "type": null,
        "latitude": 29.709326,
        "longitude": -95.397108,
        "created_at": "2020-12-18T18:59:26.403Z",
        "updated_at": "2020-12-18T18:59:26.403Z",
        "campus": "Texas Medical Center",
        "photo": "https://www.texaschildrens.org/sites/default/files/2K11-0095-PVK_6101%20.jpg",
        "phone": null
    },
    {
        "id": 52,
        "name": "Texas Children's Pavilion for Women",
        "address": "6651 Main Street",
        "city": "Houston",
        "state": "Texas",
        "zip": "77030",
        "type": null,
        "latitude": 29.708208,
        "longitude": -95.402814,
        "created_at": "2020-12-18T18:59:26.403Z",
        "updated_at": "2020-12-18T18:59:26.403Z",
        "campus": "Texas Medical Center",
        "photo": "https://www.texaschildrens.org/sites/default/files/2k12-0027-8503%20Pavilion%20for%20Women.jpg",
        "phone": "832-826-3000"
    },
    {
        "id": 53,
        "name": "Texas Children's Hospital West Campus",
        "address": "18200 Katy Freeway (I-10 and Barker Cypress)",
        "city": "Houston",
        "state": "Texas",
        "zip": "77094",
        "type": null,
        "latitude": 29.787533,
        "longitude": -95.693018,
        "created_at": "2020-12-18T18:59:26.403Z",
        "updated_at": "2020-12-18T18:59:26.403Z",
        "campus": "West Campus",
        "photo": "https://www.texaschildrens.org/sites/default/files/West%20Campus%20exterior.jpg",
        "phone": "832-227-1000"
    },
    {
        "id": 54,
        "name": "Texas Children's Hospital West Campus",
        "address": "18200 Katy Freeway (I-10 and Barker Cypress)",
        "city": "Houston",
        "state": "Texas",
        "zip": "77094",
        "type": null,
        "latitude": 29.787533,
        "longitude": -95.693018,
        "created_at": "2020-12-18T18:59:26.403Z",
        "updated_at": "2020-12-18T18:59:26.403Z",
        "campus": "West Campus",
        "photo": "https://www.texaschildrens.org/sites/default/files/West%20Campus%20exterior_0.jpg",
        "phone": "832-227-1000"
    },
    {
        "id": 55,
        "name": "Feigin Tower",
        "address": "1102 Bates Avenue",
        "city": "Houston",
        "state": "Texas",
        "zip": "77030",
        "type": null,
        "latitude": 29.706705,
        "longitude": -95.401062,
        "created_at": "2020-12-18T18:59:26.403Z",
        "updated_at": "2020-12-18T18:59:26.403Z",
        "campus": "Texas Medical Center",
        "photo": "https://www.texaschildrens.org/sites/default/files/Feigin%20Center%20exterior%20%28photo%20by%20Paul%20Vincent%20Kuntz%29.jpg",
        "phone": "832-824-1000"
    },
    {
        "id": 56,
        "name": "Feigin Tower",
        "address": "1102 Bates Avenue",
        "city": "Houston",
        "state": "Texas",
        "zip": "77030",
        "type": null,
        "latitude": 29.706705,
        "longitude": -95.401062,
        "created_at": "2020-12-18T18:59:26.403Z",
        "updated_at": "2020-12-18T18:59:26.403Z",
        "campus": "Texas Medical Center",
        "photo": "https://www.texaschildrens.org/sites/default/files/2k8-0815-4041-revised-Fiegin-Center-construction-update-COMPLETED-10-21-08.jpg_0.jpg",
        "phone": "832-824-1000"
    },
    {
        "id": 57,
        "name": "Wallace Tower",
        "address": "6701 Fannin Street",
        "city": "Houston",
        "state": "Texas",
        "zip": "77030",
        "type": null,
        "latitude": 29.707067,
        "longitude": -95.402324,
        "created_at": "2020-12-18T18:59:26.403Z",
        "updated_at": "2020-12-18T18:59:26.403Z",
        "campus": "Texas Medical Center",
        "photo": "https://www.texaschildrens.org/sites/default/files/Clinical%20Care%20Center%20from%20top%20of%20West%20Tower%202k6-1258-030.jpg",
        "phone": "832-824-1000"
    },
    {
        "id": 58,
        "name": "Children's Nutrition Research Center",
        "address": "1100 Bates Street",
        "city": "Houston",
        "state": "Texas",
        "zip": "77030",
        "type": null,
        "latitude": 29.706821,
        "longitude": -95.401723,
        "created_at": "2020-12-18T18:59:26.403Z",
        "updated_at": "2020-12-18T18:59:26.403Z",
        "campus": "Texas Medical Center",
        "photo": "https://www.texaschildrens.org/sites/default/files/Children%27s-Nutrition-Research-Center-CNRC.jpg",
        "phone": "Phone: 832-824-6782"
    },
    {
        "id": 59,
        "name": "Abercrombie Building",
        "address": "6621 Fannin Street",
        "city": "Houston",
        "state": "Texas",
        "zip": "77030",
        "type": null,
        "latitude": 29.707864,
        "longitude": -95.401577,
        "created_at": "2020-12-18T18:59:26.403Z",
        "updated_at": "2020-12-18T18:59:26.403Z",
        "campus": "Texas Medical Center",
        "photo": "https://www.texaschildrens.org/sites/default/files/Abercrombie.jpg",
        "phone": "832-824-1000"
    },
    {
        "id": 60,
        "name": "Texas Children's West Tower",
        "address": "6621 Fannin Street",
        "city": "Houston",
        "state": "Texas",
        "zip": "77030",
        "type": null,
        "latitude": 29.707864,
        "longitude": -95.401577,
        "created_at": "2020-12-18T18:59:26.403Z",
        "updated_at": "2020-12-18T18:59:26.403Z",
        "campus": "Texas Medical Center",
        "photo": "https://www.texaschildrens.org/sites/default/files/west_tower.PNG",
        "phone": "832-824-1000"
    }
]